City_ID,City,Lat,Lng,Max Temp,Humidity,Cloudiness,Wind Speed,Country,Date
0,Provideniya,64.3833,-173.3,-2.09,65,100,6.71,RU,1675822214
1,Abha,18.2164,42.5053,51.62,87,0,0.0,SA,1675821989
2,Port Alfred,-33.5906,26.891,69.19,89,100,1.99,ZA,1675822235
3,Nanortalik,60.1432,-45.2371,4.66,73,10,19.8,GL,1675822236
4,Rikitea,-23.1203,-134.9692,79.97,68,10,9.95,PF,1675822237
5,Guerrero Negro,27.9769,-114.0611,64.89,30,0,6.46,MX,1675822239
6,Punta Arenas,-53.15,-70.9167,51.91,82,0,4.61,CL,1675822054
7,Havre-Saint-Pierre,50.2334,-63.5986,15.04,79,100,12.55,CA,1675822239
8,Ulety,51.3572,112.4849,7.39,82,48,3.15,RU,1675822240
9,Cayenne,4.9333,-52.3333,77.04,94,75,3.44,GF,1675822241
10,Bathsheba,13.2167,-59.5167,74.01,94,40,11.5,BB,1675822241
11,El Dorado,38.7666,-120.5177,46.18,82,100,3.0,US,1675822242
12,Vaini,-21.2,-175.2,84.36,79,75,6.91,TO,1675822243
13,Upernavik,72.7868,-56.1549,-22.16,96,48,4.0,GL,1675822243
14,Ushuaia,-54.8,-68.3,45.36,86,98,6.29,AR,1675822173
15,Vao,-22.6667,167.4833,80.22,70,13,13.44,NC,1675821982
16,Broken Hill,-31.95,141.4333,85.69,16,0,11.34,AU,1675822244
17,Kieta,-6.2167,155.6333,85.5,69,34,8.77,PG,1675822245
18,Cape Town,-33.9258,18.4232,69.91,73,0,14.0,ZA,1675822245
19,Georgetown,5.4112,100.3354,82.33,69,20,8.05,MY,1675822203
20,Dikson,73.5069,80.5464,-8.27,90,100,21.77,RU,1675822090
21,Atuona,-9.8,-139.0333,79.29,74,28,16.49,PF,1675822246
22,Leningradskiy,69.3833,178.4167,-24.12,96,100,4.9,RU,1675821653
23,Neuquen,-38.9516,-68.0591,85.19,11,0,10.69,AR,1675822247
24,New Norfolk,-42.7826,147.0587,62.92,33,6,3.24,AU,1675822247
25,Albany,42.6001,-73.9662,34.27,79,100,3.0,US,1675822092
26,Shimoda,34.6667,138.95,49.1,72,47,7.05,JP,1675822248
27,Grindavik,63.8424,-22.4338,26.55,86,75,37.98,IS,1675822249
28,Tessalit,20.1986,1.0114,69.62,14,68,8.3,ML,1675822249
29,Beira,-19.8436,34.8389,77.09,100,20,4.61,MZ,1675822250
30,Bintulu,3.1667,113.0333,78.44,83,99,1.88,MY,1675822250
31,Petropavlovsk-Kamchatskiy,53.0452,158.6483,14.59,48,20,6.71,RU,1675822251
32,Nikolskoye,59.7035,30.7861,30.09,86,100,10.07,RU,1675822251
33,Tiksi,71.6872,128.8694,-33.0,99,100,5.57,RU,1675822252
34,Arifwala,30.294,73.0735,52.29,40,23,3.69,PK,1675822252
35,Faanui,-16.4833,-151.75,81.1,73,24,12.15,PF,1675822253
36,Malibu,34.005,-118.8101,65.86,44,8,1.01,US,1675822229
37,Castro,-24.7911,-50.0119,62.19,93,62,5.28,BR,1675822125
38,Mataura,-46.1927,168.8643,56.48,65,73,10.71,NZ,1675822176
39,Thoen,17.6129,99.2161,80.46,29,0,1.92,TH,1675822254
40,San Quintin,30.4833,-115.95,59.27,51,0,4.5,MX,1675822254
41,Ouegoa,-20.35,164.4333,78.98,87,100,4.43,NC,1675822255
42,Bredasdorp,-34.5322,20.0403,65.37,79,11,7.07,ZA,1675822082
43,Kodiak,57.79,-152.4072,27.91,50,0,16.11,US,1675822190
44,Kurchum,48.5722,83.6542,2.5,98,90,1.52,KZ,1675822256
45,East London,-33.0153,27.9116,70.68,84,100,11.59,ZA,1675822148
46,Kaeo,-35.1,173.7833,81.32,60,27,6.8,NZ,1675822257
47,Manggar,-2.8833,108.2667,81.93,75,100,5.44,ID,1675822047
48,Iqaluit,63.7506,-68.5145,-18.18,96,100,2.75,CA,1675822257
49,Yumen,40.2833,97.2,27.64,53,21,11.32,CN,1675822258
50,Vanavara,60.34,102.2797,-0.6,97,100,2.39,RU,1675822259
51,Venado Tuerto,-33.7456,-61.9688,79.77,32,0,4.45,AR,1675822259
52,San Vicente,-26.6167,-54.1333,69.24,48,5,2.3,AR,1675822260
53,Nuuk,64.1835,-51.7216,7.88,78,100,5.01,GL,1675822260
54,Lebu,-37.6167,-73.65,58.95,88,0,17.31,CL,1675822149
55,Hilo,19.7297,-155.09,77.29,89,100,12.66,US,1675822087
56,Evensk,61.95,159.2333,-15.95,76,59,6.78,RU,1675822264
57,Ayagoz,47.9714,80.4392,19.96,95,100,0.85,KZ,1675822266
58,Tocopilla,-22.092,-70.1979,73.99,77,15,5.75,CL,1675822267
59,Solnechnyy,50.7214,136.6319,-4.76,81,79,7.7,RU,1675822269
60,Hay River,60.8156,-115.7999,-4.02,77,40,4.61,CA,1675821971
61,Villavicencio,4.142,-73.6266,80.29,56,96,3.27,CO,1675822270
62,Cabo San Lucas,22.8909,-109.9124,70.52,65,40,4.61,MX,1675822161
63,Oleksandrivka,48.9634,32.2349,18.77,82,6,10.76,UA,1675822272
64,Haines Junction,60.7522,-137.5108,14.43,97,24,4.25,CA,1675822273
65,Sakakah,29.9697,40.2064,44.37,66,4,14.7,SA,1675822274
66,Ouesso,1.6136,16.0517,68.67,62,38,2.48,CG,1675822275
67,Airai,-8.9266,125.4092,70.03,78,77,3.13,TL,1675822276
68,Schenefeld,53.6028,9.8233,26.46,84,0,4.61,DE,1675822276
69,Tarut,26.5733,50.0369,64.6,58,99,17.67,SA,1675822180
70,Clyde River,70.4692,-68.5914,-31.16,98,93,3.02,CA,1675822279
71,Mwinilunga,-11.7358,24.4293,59.9,98,100,3.74,ZM,1675822280
72,Gamba,-2.65,10.0,76.05,84,56,2.46,GA,1675821993
73,Russkaya Polyana,49.417,31.9201,18.05,88,6,7.96,UA,1675822281
74,Kenai,60.5544,-151.2583,28.49,97,100,11.5,US,1675822282
75,Ulladulla,-35.35,150.4667,67.57,83,100,4.0,AU,1675822283
76,Port Blair,11.6667,92.75,80.64,74,40,9.22,IN,1675822284
77,Hobart,-42.8794,147.3294,63.27,68,75,14.97,AU,1675822285
78,Nizhnevartovsk,60.9344,76.5531,-21.98,69,0,2.24,RU,1675822286
79,Ilulissat,69.2167,-51.1,-16.58,76,75,6.91,GL,1675822288
80,Kapaa,22.0752,-159.319,79.12,86,75,16.11,US,1675822186
81,Key Largo,25.0865,-80.4473,74.98,72,9,16.6,US,1675822152
82,Inhambane,-23.865,35.3833,77.67,87,8,6.71,MZ,1675822290
83,Atasu,48.6814,71.6433,2.62,96,100,5.35,KZ,1675822291
84,Avarua,-21.2078,-159.775,84.25,74,28,11.5,CK,1675822292
85,Alofi,-19.0595,-169.9187,82.29,78,75,10.36,NU,1675822294
86,Hermanus,-34.4187,19.2345,67.8,83,0,11.83,ZA,1675822294
87,Mar Del Plata,-38.0023,-57.5575,74.08,93,0,18.99,AR,1675822059
88,Port Hardy,50.6996,-127.4199,39.38,93,75,5.75,CA,1675822295
89,Taytay,14.5678,121.1394,87.73,67,75,5.75,PH,1675822296
90,Leshukonskoye,64.8989,45.7622,33.12,98,100,10.51,RU,1675822296
91,Chuy,-33.6971,-53.4616,70.7,80,27,7.38,UY,1675822258
92,Lavrentiya,65.5833,-171.0,-14.3,92,97,2.77,RU,1675822297
93,Shirokiy,49.758,129.523,-7.58,85,99,1.19,RU,1675822298
94,Itamaraca,-7.7478,-34.8256,80.65,73,100,7.56,BR,1675822298
95,Victoria,22.2855,114.1577,66.38,85,97,15.01,HK,1675822054
96,Nioro,13.35,-15.75,74.5,18,6,8.3,GM,1675822299
97,Saraland,30.8207,-88.0706,66.31,85,78,5.55,US,1675822300
98,Puerto Ayora,-0.7393,-90.3518,79.56,92,52,7.0,EC,1675822092
99,Haimen,23.1935,116.6142,63.54,77,31,22.77,CN,1675822300
100,Severo-Kurilsk,50.6789,156.125,24.82,54,12,9.55,RU,1675822301
101,Muros,42.7762,-9.0603,44.1,82,52,18.39,ES,1675822095
102,Sao Joao Da Barra,-21.6403,-41.0511,74.68,92,100,5.39,BR,1675822300
103,Alyangula,-13.8483,136.4192,86.56,65,100,4.03,AU,1675822302
104,Jasper,37.2001,-94.3502,42.85,82,40,3.44,US,1675822037
105,Richards Bay,-28.783,32.0377,72.5,97,3,3.2,ZA,1675822303
106,Vuktyl,63.8567,57.3094,11.66,94,100,14.23,RU,1675822303
107,Fairmount,43.0473,-76.2385,46.15,72,100,13.8,US,1675822304
108,Aban,56.67,96.06,18.57,96,100,4.5,RU,1675822304
109,Hasaki,35.7333,140.8333,48.6,68,100,21.07,JP,1675822305
110,Bethel,41.3712,-73.414,37.76,78,100,3.44,US,1675822305
111,Ostersund,63.1792,14.6357,34.25,80,20,12.66,SE,1675822306
112,Arraial Do Cabo,-22.9661,-42.0278,75.16,91,100,4.38,BR,1675822273
113,Polyany,54.7122,39.8231,8.69,98,74,4.43,RU,1675822307
114,Bambous Virieux,-20.3428,57.7575,79.05,83,40,11.5,MU,1675822190
115,Half Moon Bay,37.4636,-122.4286,57.33,73,0,13.8,US,1675822039
116,Barrow,71.2906,-156.7887,1.42,78,100,5.75,US,1675822144
117,Shingu,33.7333,135.9833,57.33,40,7,4.59,JP,1675822308
118,Yellowknife,62.456,-114.3525,-1.53,95,100,6.98,CA,1675822191
119,Yulara,-25.2406,130.9889,96.04,18,0,6.73,AU,1675822069
120,Carnarvon,-24.8667,113.6333,83.84,52,0,15.75,AU,1675822309
121,Levokumskoye,44.8219,44.6606,21.6,95,100,11.81,RU,1675822309
122,Ribeira Grande,38.5167,-28.7,55.78,64,9,7.0,PT,1675822310
123,Jiangmen,22.5833,113.0833,70.99,72,94,12.15,CN,1675822310
124,Esperance,-33.8667,121.9,70.57,66,88,10.98,AU,1675822117
125,Malinovoye Ozero,51.6753,79.7825,-6.56,100,100,3.0,RU,1675822311
126,Geraldton,-28.7667,114.6,81.01,54,0,8.05,AU,1675822312
127,Auki,-8.7676,160.7034,83.48,77,100,6.24,SB,1675822268
128,Shchors,51.8186,31.945,13.91,94,6,5.7,UA,1675822313
129,Chokurdakh,70.6333,147.9167,-36.67,99,100,3.62,RU,1675822155
130,Tchibanga,-2.85,11.0333,70.72,96,88,0.58,GA,1675822313
131,Kaitangata,-46.2817,169.8464,58.91,49,11,15.39,NZ,1675822205
132,Bluff,-46.6,168.3333,56.8,61,62,26.26,NZ,1675822067
133,Qaanaaq,77.484,-69.3632,-25.2,67,4,6.24,GL,1675822070
134,Takoradi,4.8845,-1.7554,77.97,87,100,4.61,GH,1675822315
135,Busselton,-33.65,115.3333,75.96,50,0,5.73,AU,1675822181
136,Tasiilaq,65.6145,-37.6368,-0.24,37,0,28.32,GL,1675822315
137,Klaksvik,62.2266,-6.589,47.32,84,100,56.8,FO,1675822316
138,Chik,54.9928,82.4311,-2.27,84,100,8.95,RU,1675822317
139,Fort Nelson,58.8053,-122.7002,13.55,96,5,2.82,CA,1675822318
140,Tuktoyaktuk,69.4541,-133.0374,-21.1,94,100,4.0,CA,1675822171
141,Norman Wells,65.282,-126.8329,-9.04,99,88,2.06,CA,1675822158
142,Ponta Do Sol,32.6667,-17.1,60.71,68,36,7.74,PT,1675822297
143,Jalingo,8.8833,11.3667,74.07,19,82,4.54,NG,1675822319
144,Port Elizabeth,-33.918,25.5701,68.31,93,100,3.0,ZA,1675822320
145,Jawhar,2.7809,45.5005,72.18,89,5,8.93,SO,1675822320
146,Riyadh,24.6877,46.7219,53.74,42,21,4.74,SA,1675822186
147,Paita,-5.0892,-81.1144,75.29,83,69,7.78,PE,1675822321
148,Linxia,35.6003,103.2064,28.62,86,100,5.28,CN,1675822322
149,Salalah,17.0151,54.0924,68.09,52,0,6.91,OM,1675822235
150,Tateyama,34.9833,139.8667,52.11,71,100,14.88,JP,1675822324
151,Huarmey,-10.0681,-78.1522,72.45,83,6,5.97,PE,1675822124
152,Pevek,69.7008,170.3133,-21.59,93,100,2.93,RU,1675822326
153,Ketchikan,55.3422,-131.6461,39.18,93,100,4.61,US,1675822327
154,Fairbanks,64.8378,-147.7164,6.6,80,100,0.0,US,1675822137
155,Ugoofaaru,5.6667,73.0,80.46,67,16,6.49,MV,1675822328
156,Ushumun,52.7833,126.5333,-12.66,85,20,5.06,RU,1675822329
157,Puerto Del Rosario,28.5004,-13.8627,56.95,72,0,6.91,ES,1675822330
158,Nancha,47.1333,129.2667,10.58,72,65,0.98,CN,1675822331
159,Tabas,33.5959,56.9244,53.71,66,1,8.97,IR,1675822332
160,Tommot,58.9564,126.2925,-18.38,95,100,1.81,RU,1675822334
161,Hithadhoo,-0.6,73.0833,81.14,72,13,8.01,MV,1675822334
162,Presidencia Roque Saenz Pena,-26.7852,-60.4388,83.61,35,35,2.75,AR,1675822336
163,Shumskiy,54.8318,99.1328,13.26,85,100,3.02,RU,1675822337
164,Coquimbo,-29.9533,-71.3436,64.13,88,75,4.61,CL,1675822339
165,Umm Lajj,25.0213,37.2685,61.29,57,93,9.6,SA,1675822340
166,Matinhos,-25.8175,-48.5428,75.6,85,9,5.99,BR,1675822343
167,Bandarbeyla,9.4942,50.8122,76.95,75,98,15.61,SO,1675822346
168,Souillac,-20.5167,57.5167,79.18,83,40,11.5,MU,1675822244
169,Mount Isa,-20.7333,139.5,89.37,58,40,9.22,AU,1675822353
170,Inhapim,-19.5492,-42.12,70.95,91,100,2.39,BR,1675822353
171,Kavieng,-2.5744,150.7967,81.66,79,99,8.95,PG,1675822354
172,Lethem,3.3803,-59.7968,78.39,73,29,11.1,GY,1675822354
173,Saint-Joseph,-21.3667,55.6167,75.58,80,70,14.0,RE,1675822262
174,Teseney,15.11,36.6575,65.39,73,3,8.43,ER,1675822355
175,Sao Jose Da Coroa Grande,-8.8978,-35.1478,76.95,71,100,6.24,BR,1675822356
176,Thompson,55.7435,-97.8558,6.67,96,100,4.47,CA,1675822356
177,Mount Gambier,-37.8333,140.7667,72.46,44,18,10.65,AU,1675822357
178,Stryn,61.9045,6.7226,45.48,96,74,11.23,NO,1675822357
179,Baisha,26.5222,110.9311,47.39,96,100,3.36,CN,1675822358
180,Jamestown,42.097,-79.2353,41.02,90,100,13.8,US,1675822353
181,Vestmannaeyjar,63.4427,-20.2734,32.59,57,100,36.6,IS,1675822251
182,Saint-Philippe,-21.3585,55.7679,76.59,83,90,14.14,RE,1675822359
183,Soligalich,59.0778,42.2864,15.87,94,100,8.86,RU,1675822359
184,Codrington,-38.2667,141.9667,66.02,60,87,15.37,AU,1675822249
185,Nishihara,26.1842,127.7558,71.26,71,40,16.11,JP,1675822073
186,Rio Cuarto,-33.1307,-64.3499,77.47,35,0,9.48,AR,1675822361
187,Padang,-0.9492,100.3543,80.65,58,79,1.23,ID,1675822361
188,Pangkalanbuun,-2.6833,111.6167,85.96,61,81,4.32,ID,1675822362
189,Sept-Iles,50.2001,-66.3821,20.05,86,100,10.0,CA,1675822083
190,Derzhavinsk,51.1,66.3167,-4.54,100,97,7.02,KZ,1675822362
191,Sladkovo,55.5284,70.3385,-12.17,100,88,5.73,RU,1675822363
192,Khatanga,71.9667,102.5,-47.52,100,64,2.82,RU,1675822363
193,Aviles,43.5547,-5.9248,40.39,75,0,4.61,ES,1675822115
194,Mogadishu,2.0371,45.3438,75.88,85,10,16.17,SO,1675822364
195,Klyuchi,52.2667,79.1667,-8.01,100,94,3.27,RU,1675822365
196,Koumac,-20.5667,164.2833,79.38,86,100,7.43,NC,1675822365
197,San Patricio,28.017,-97.5169,73.35,80,94,13.91,US,1675822154
198,Bartica,6.4,-58.6167,77.32,99,12,1.81,GY,1675822366
199,Dunedin,-45.8742,170.5036,60.58,46,61,17.11,NZ,1675822367
200,Pangnirtung,66.1451,-65.7125,-28.79,84,6,5.26,CA,1675822367
201,Saint George,37.1041,-113.5841,48.94,43,0,6.91,US,1675822127
202,Alice Springs,-23.7,133.8833,92.75,40,0,12.66,AU,1675822368
203,Vila Velha,-20.3297,-40.2925,80.55,89,40,8.05,BR,1675822082
204,Narsaq,60.9167,-46.05,-3.78,63,0,8.05,GL,1675822150
205,Karratha,-20.7377,116.8463,93.04,40,36,7.25,AU,1675822369
206,Esqueda,30.7167,-109.5833,45.18,27,0,8.21,MX,1675822369
207,Bacolod,10.6667,122.95,82.0,69,100,11.88,PH,1675822370
208,Wexford,52.3342,-6.4575,42.89,96,59,1.99,IE,1675822370
209,Naliya,23.2667,68.8333,65.41,62,33,5.68,IN,1675822371
210,Casper,42.8666,-106.3131,27.19,74,0,20.71,US,1675822247
211,Mackay,-21.15,149.2,85.68,80,97,21.16,AU,1675822347
212,Farah,32.5,62.5,49.39,58,100,2.33,AF,1675822372
213,Saskylakh,71.9167,114.0833,-29.04,100,100,0.72,RU,1675822373
214,Constitucion,-35.3333,-72.4167,59.67,71,0,9.24,CL,1675822373
215,Trairi,-3.2778,-39.2689,77.47,81,100,7.45,BR,1675822189
216,Saint Anthony,45.0205,-93.218,28.49,80,0,5.75,US,1675822374
217,San Lazaro,18.0387,-88.6622,70.36,98,7,4.52,BZ,1675822375
218,Manta,-0.95,-80.7333,80.38,74,75,6.91,EC,1675822375
219,Beringovskiy,63.05,179.3167,-17.14,94,82,7.72,RU,1675822348
220,Uniao,-4.5858,-42.8642,72.45,98,100,1.88,BR,1675822376
221,Aklavik,68.2191,-135.0107,-20.33,95,100,7.99,CA,1675822376
222,Beisfjord,68.3751,17.5988,39.25,94,100,10.09,NO,1675822377
223,Ocos,14.5094,-92.1933,73.58,69,17,4.97,GT,1675822377
224,Butaritari,3.0707,172.7902,80.94,81,100,21.92,KI,1675822378
225,Ambanja,-13.6833,48.45,73.08,91,100,2.91,MG,1675822378
226,Tres Lagoas,-20.7511,-51.6783,71.24,84,100,2.3,BR,1675822379
227,Benguela,-12.5763,13.4055,73.44,77,100,3.71,AO,1675822379
228,Palmer,42.1584,-72.3287,33.85,78,100,8.05,US,1675822191
229,Roald,62.5833,6.1333,45.52,57,76,19.57,NO,1675822249
230,Mahibadhoo,3.7833,72.9667,80.51,67,66,5.61,MV,1675822380
231,Sitka,57.0531,-135.33,37.29,81,100,0.0,US,1675822127
232,Namibe,-15.1961,12.1522,70.02,75,95,4.68,AO,1675822165
233,Asau,46.4333,26.4,22.12,97,97,4.41,RO,1675822381
234,San Mateo Del Mar,16.2,-95.0,77.63,76,0,11.5,MX,1675822384
235,Kiknur,57.3034,47.2011,7.63,93,100,9.19,RU,1675822385
236,Alugan,12.2188,125.4808,81.05,74,100,14.14,PH,1675822386
237,Kuhdasht,33.535,47.6061,36.43,78,97,5.86,IR,1675822388
238,Coxim,-18.5067,-54.76,70.7,92,100,3.15,BR,1675822390
239,Taoudenni,22.6783,-3.9836,63.75,20,100,11.43,ML,1675822391
240,Pisco,-13.7,-76.2167,75.25,83,0,11.5,PE,1675822255
241,Port Macquarie,-31.4333,152.9167,78.89,62,85,6.15,AU,1675822393
242,Yeppoon,-23.1333,150.7333,82.18,65,99,20.87,AU,1675822393
243,Chancay,-11.5714,-77.2672,73.8,84,56,5.1,PE,1675822394
244,Acapulco,16.8634,-99.8901,80.42,69,20,8.05,MX,1675822391
245,Maraa,-1.8333,-65.3667,73.4,98,91,2.44,BR,1675822395
246,Skelleftea,64.7507,20.9528,28.76,93,80,4.61,SE,1675822396
247,Polewali,-3.4324,119.3435,87.1,52,36,2.46,ID,1675822398
248,Cherskiy,68.75,161.3,-28.8,96,100,5.5,RU,1675822183
249,Dolni Dabnik,43.4,24.4333,22.82,86,40,4.61,BG,1675822401
250,Saint-Augustin,51.226,-58.6502,-3.28,86,17,5.14,CA,1675822403
251,El Tarra,8.5756,-73.0949,75.74,89,83,1.77,CO,1675822404
252,Sola,-13.8833,167.55,81.9,77,94,14.63,VU,1675822405
253,Champerico,14.3,-91.9167,78.66,70,7,6.58,GT,1675822408
254,Morant Bay,17.8815,-76.4093,75.16,82,12,12.01,JM,1675822410
255,Mahebourg,-20.4081,57.7,79.09,83,40,11.5,MU,1675822412
256,Mayo,38.8876,-76.5119,47.86,80,20,6.91,US,1675822412
257,Lompoc,34.6391,-120.4579,57.34,84,0,8.01,US,1675822169
258,Bowen,-20.0167,148.2333,83.32,74,100,17.18,AU,1675822413
259,Laguna,38.421,-121.4238,54.68,67,100,3.56,US,1675822292
260,Coihaique,-45.5752,-72.0662,62.55,67,75,2.3,CL,1675822273
261,Saldanha,-33.0117,17.9442,64.02,89,0,13.2,ZA,1675822415
262,Aleksandrov,56.4,38.71,6.91,95,66,6.22,RU,1675822416
263,Shushtar,32.0455,48.8567,51.91,59,0,2.59,IR,1675822417
264,Vardo,70.3705,31.1107,30.18,80,8,20.71,NO,1675822417
265,Isangel,-19.55,169.2667,86.11,79,100,3.44,VU,1675822418
266,Ixtapa,20.7,-105.2,72.63,78,0,6.91,MX,1675822418
267,Lorengau,-2.0226,147.2712,77.9,95,100,15.64,PG,1675822241
268,Puri,19.8,85.85,68.52,73,9,10.16,IN,1675822419
269,Jacksonville,30.3322,-81.6556,63.99,85,0,5.75,US,1675822311
270,Cascais,38.6979,-9.4215,49.93,72,12,11.99,PT,1675822328
271,Tarko-Sale,64.9225,77.785,-15.83,100,99,5.99,RU,1675822420
272,Lagunas,-5.2269,-75.6753,73.63,88,51,2.13,PE,1675822421
273,Burnie,-41.0667,145.9167,61.93,74,99,8.59,AU,1675822421
274,Kirakira,-10.4544,161.9205,82.6,83,100,9.46,SB,1675822422
275,Ancud,-41.8697,-73.8203,57.36,94,0,3.62,CL,1675822141
276,Mercedes,-34.6515,-59.4307,79.79,37,0,9.64,AR,1675822423
277,Maniitsoq,65.4167,-52.9,0.66,90,100,9.46,GL,1675822423
278,Pangai,-19.8,-174.35,79.95,78,67,17.85,TO,1675822424
279,Concordia,-31.393,-58.0209,79.79,40,0,8.01,AR,1675822285
280,Caravelas,-17.7125,-39.2481,77.4,81,4,8.08,BR,1675822424
281,Pontianak,-0.0333,109.3333,80.58,78,20,2.3,ID,1675822425
282,Kavaratti,10.5669,72.642,79.74,71,97,11.52,IN,1675822425
283,Bairiki,1.3292,172.9752,86.0,66,40,14.97,KI,1675822426
284,Saint-Georges,12.0564,-61.7485,76.37,83,96,13.31,GD,1675822426
285,Bubaque,11.2833,-15.8333,75.31,68,5,15.61,GW,1675822427
286,Belgrade,44.804,20.4651,25.34,83,20,6.91,RS,1675822427
287,Villamontes,-21.25,-63.5,70.9,95,100,3.8,BO,1675822428
288,Nivala,63.9167,24.9667,23.29,99,69,4.52,FI,1675822428
289,Marsa Matruh,31.3525,27.2453,51.98,75,91,8.66,EG,1675822429
290,Villareal,11.5659,124.9281,82.8,65,100,8.19,PH,1675822429
291,Weatherford,32.7593,-97.7972,46.53,92,100,8.99,US,1675822265
292,Chake Chake,-5.2459,39.7666,77.16,83,68,7.56,TZ,1675822431
293,Ambunti,-4.2365,142.8448,84.15,73,94,4.56,PG,1675822431
294,Bonthe,7.5264,-12.505,75.69,78,42,4.21,SL,1675822432
295,Nueve De Julio,-35.4444,-60.8831,80.44,29,0,5.39,AR,1675822433
296,Karonga,-9.9333,33.9333,73.96,77,100,5.55,MW,1675822433
297,Stanislav,46.5691,32.1478,26.46,64,100,22.21,UA,1675822434
298,Merauke,-8.4667,140.3333,83.14,77,76,15.73,ID,1675822434
299,Whitley Bay,55.0397,-1.4471,42.21,93,100,5.75,GB,1675822435
300,Hambantota,6.1241,81.1185,73.74,100,20,5.75,LK,1675822148
301,Liepaja,56.5419,21.0367,35.58,87,100,14.97,LV,1675822435
302,Biaora,23.8667,76.9167,57.31,38,0,5.03,IN,1675822436
303,Teknaf,20.8624,92.3058,68.36,55,0,3.33,BD,1675822436
304,Omboue,-1.5746,9.2618,77.14,88,100,4.97,GA,1675822337
305,Jalu,29.0331,21.5482,48.61,58,68,6.44,LY,1675822437
306,Comodoro Rivadavia,-45.8667,-67.5,67.26,49,3,7.63,AR,1675822355
307,Robertsport,6.7533,-11.3686,78.04,89,100,6.42,LR,1675822438
308,Careiro Da Varzea,-3.2003,-59.8119,77.61,94,66,3.02,BR,1675822438
309,Lashma,54.9321,41.1438,4.64,100,88,2.95,RU,1675822439
310,Tatarsk,55.219,75.9828,-0.02,98,100,4.09,RU,1675822439
311,Pecos,31.4229,-103.4932,47.23,66,100,11.5,US,1675822440
312,Sena Madureira,-9.0656,-68.6569,72.16,95,79,0.49,BR,1675822256
313,Fort Frances,48.5999,-93.4003,26.82,63,0,4.61,CA,1675822441
314,Jhalrapatan,24.55,76.1667,57.33,40,0,2.98,IN,1675822442
315,Lagoa,39.05,-27.9833,55.72,56,100,14.32,PT,1675822290
316,Avanigadda,16.0215,80.9181,71.08,81,100,3.24,IN,1675822445
317,Nacogdoches,31.6002,-94.6335,66.81,88,100,5.75,US,1675822448
318,Ovalle,-30.5983,-71.2003,74.16,59,0,4.36,CL,1675822449
319,Zhigansk,66.7697,123.3711,-48.08,98,100,6.51,RU,1675822450
320,Samarai,-10.6167,150.6667,82.53,76,100,12.57,PG,1675822452
321,Puerto Leguizamo,-0.1934,-74.7819,74.07,77,8,2.42,CO,1675822455
322,Muzhi,65.3667,64.6667,8.15,88,100,15.37,RU,1675822458
323,Strezhevoy,60.7333,77.5889,-16.26,100,69,6.08,RU,1675822462
324,Lambarene,-0.7001,10.2406,75.02,94,100,2.59,GA,1675822465
325,Port Shepstone,-30.7414,30.455,74.52,82,100,17.52,ZA,1675822467
326,Imbituba,-28.24,-48.6703,72.07,88,16,6.58,BR,1675822471
327,Mayor Pablo Lagerenza,-19.9309,-60.7718,75.65,81,100,4.54,PY,1675822475
328,Volchansk,59.9378,60.081,5.22,85,92,8.97,RU,1675822477
329,Alta Floresta,-9.8756,-56.0861,71.38,97,99,2.1,BR,1675822477
330,San Felipe,10.3399,-68.7425,70.79,97,100,4.92,VE,1675822478
331,Yar-Sale,66.8333,70.8333,5.36,84,100,20.49,RU,1675822240
332,Gushikawa,26.3544,127.8686,71.19,69,20,9.22,JP,1675822479
333,Tirschenreuth,49.8825,12.3331,22.64,89,4,3.0,DE,1675822480
334,Peru,40.7537,-86.0689,38.52,87,0,5.75,US,1675822480
335,Xining,36.6167,101.7667,27.82,84,100,1.9,CN,1675822481
336,Chimbote,-9.0853,-78.5783,71.91,81,4,6.06,PE,1675822481
337,Indramayu,-6.3264,108.32,79.68,81,99,7.81,ID,1675822482
338,San Juan De Los Morros,9.9115,-67.3538,71.26,80,11,4.54,VE,1675822483
339,Jumla,29.2747,82.1838,36.27,41,0,3.4,NP,1675822483
340,Laramie,41.3114,-105.5911,26.96,86,0,10.36,US,1675822084
341,Tres Arroyos,-38.3739,-60.2798,71.78,61,0,5.17,AR,1675822484
342,Montes Claros,-16.735,-43.8617,74.98,78,0,0.0,BR,1675822484
343,Rio Gallegos,-51.6226,-69.2181,57.25,77,0,20.71,AR,1675822485
344,Neryungri,56.6709,124.6491,-13.61,92,99,6.98,RU,1675822344
345,Muravlenko,63.7898,74.523,-13.23,100,94,9.98,RU,1675822486
346,Mount Forest,43.9795,-80.7221,33.53,100,100,6.91,CA,1675822486
347,La Ronge,55.1001,-105.2842,25.18,81,3,10.67,CA,1675822268
348,Vila Franca Do Campo,37.7167,-25.4333,54.01,79,92,10.29,PT,1675822487
349,Mancio Lima,-7.6142,-72.8958,72.03,95,88,0.94,BR,1675822488
350,Mazagao,-0.115,-51.2894,75.25,96,98,2.68,BR,1675822488
351,Bam,29.106,58.357,59.07,51,56,7.38,IR,1675822489
352,Ascension,30.2169,-90.9001,68.22,91,100,0.0,US,1675822489
353,Belyy Yar,53.6039,91.3903,2.86,90,100,0.0,RU,1675822489
354,Banepa,27.6298,85.5214,45.12,87,20,3.44,NP,1675822490
355,Chernoistochinsk,57.7364,59.8719,-3.82,99,51,5.73,RU,1675822490
356,Ola,59.5833,151.2833,-13.86,77,44,8.19,RU,1675822491
357,Puerto Baquerizo Moreno,-0.9,-89.6,77.81,81,15,5.66,EC,1675822239
358,Broome,42.2506,-75.833,39.45,76,75,11.01,US,1675822492
359,Ossora,59.2353,163.0719,-9.42,82,86,5.66,RU,1675822492
360,Zlitan,32.4674,14.5687,53.38,67,73,14.74,LY,1675822493
361,Aswan,24.0934,32.907,49.51,42,25,9.64,EG,1675822317
362,Longyearbyen,78.2186,15.6401,24.64,80,40,20.71,SJ,1675822494
363,Curillo,1.0333,-75.9191,74.43,78,7,3.02,CO,1675822494
364,Smithers,54.7804,-127.1743,21.13,98,80,0.89,CA,1675822316
365,Noumea,-22.2763,166.4572,90.0,99,97,10.27,NC,1675822456
366,Pulandian,39.3953,121.9669,33.22,31,0,7.78,CN,1675822495
367,Dawson Creek,55.7666,-120.2362,22.64,74,0,2.3,CA,1675822496
368,Kindu,-2.95,25.95,70.86,91,93,2.39,CD,1675822496
369,Katsuura,35.1333,140.3,51.82,71,98,18.07,JP,1675822496
370,Teguise,29.0605,-13.564,53.82,77,0,3.44,ES,1675822497
371,Olafsvik,64.8945,-23.7142,27.52,57,100,27.67,IS,1675822498
372,Cozumel,20.5083,-86.9458,80.08,83,20,11.5,MX,1675822366
373,Basingstoke,51.2625,-1.0871,29.39,93,4,1.14,GB,1675822499
374,Dali,25.7,100.1833,49.44,47,0,4.5,CN,1675822268
375,Pacifica,37.6138,-122.4869,56.57,77,40,13.8,US,1675822499
376,Bonavista,48.6499,-53.1147,24.31,69,89,21.74,CA,1675822353
377,Bastia,42.6667,9.3333,44.29,70,75,5.75,FR,1675822500
378,The Valley,18.217,-63.0578,78.1,76,0,19.64,AI,1675822501
379,Boguchany,58.3814,97.4531,10.0,97,100,2.71,RU,1675822501
380,Greymouth,-42.4667,171.2,64.65,52,71,13.89,NZ,1675822503
381,Verkhnyaya Inta,65.9811,60.3094,14.77,93,100,25.43,RU,1675822509
382,Beipiao,41.7919,120.7792,28.92,23,0,5.48,CN,1675822512
383,Ruidoso,33.3317,-105.673,29.57,88,98,5.75,US,1675822518
384,Warsaw,52.2298,21.0118,30.9,88,75,4.61,PL,1675822520
385,Torbay,47.6666,-52.7314,25.39,85,75,24.16,CA,1675822536
386,Tabuk,17.4189,121.4443,78.19,82,78,2.06,PH,1675822537
387,Vallenar,-28.5708,-70.7581,72.86,56,2,2.91,CL,1675822538
388,Wenatchee,47.4235,-120.3103,46.4,72,0,10.36,US,1675822319
389,Sao Filipe,14.8961,-24.4956,68.13,69,18,10.78,CV,1675822539
390,Severodvinsk,64.5635,39.8302,35.71,95,100,12.24,RU,1675822540
391,Tigil,57.8,158.6667,-5.3,92,100,8.88,RU,1675822540
392,Gorontalo,0.5412,123.0595,74.03,94,100,5.39,ID,1675822541
393,Ban Phai,16.06,102.731,79.02,51,8,9.8,TH,1675822541
394,Waingapu,-9.6567,120.2641,84.06,73,46,11.23,ID,1675822542
395,Banda Aceh,5.5577,95.3222,79.75,81,98,10.63,ID,1675822543
396,Manado,1.487,124.8455,75.97,94,40,1.14,ID,1675822543
397,Aloleng,16.1307,119.7824,83.88,63,93,7.14,PH,1675822544
398,Gat,31.61,34.7642,48.88,100,63,20.96,IL,1675822261
399,Sinnamary,5.3833,-52.95,75.25,91,65,9.71,GF,1675822544
400,Komsomolskiy,40.4272,71.7189,32.72,74,99,6.91,UZ,1675822545
401,Bahir Dar,11.5936,37.3908,62.26,44,0,3.71,ET,1675822546
402,Ratnagiri,16.9833,73.3,70.02,56,30,4.83,IN,1675822547
403,Tromso,69.6496,18.957,39.22,65,100,26.46,NO,1675822267
404,Tarakan,3.3,117.6333,78.3,83,75,3.44,ID,1675822547
405,Yasnyy,51.0333,59.8742,-4.86,100,96,9.04,RU,1675822548
406,Mitsamiouli,-11.3847,43.2844,81.09,78,100,10.67,KM,1675822310
407,Chiang Klang,19.2938,100.8617,78.84,34,5,1.34,TH,1675822549
408,Tuatapere,-46.1333,167.6833,56.26,58,67,15.41,NZ,1675822549
409,Hobyo,5.3505,48.5268,77.11,69,97,15.39,SO,1675822551
410,Bilibino,68.0546,166.4372,-33.59,98,100,2.24,RU,1675822335
411,Bardiyah,31.7561,25.0865,51.64,77,49,10.54,LY,1675822552
412,Rocha,-34.4833,-54.3333,68.27,85,6,7.45,UY,1675822552
413,Eirunepe,-6.6603,-69.8736,72.19,96,70,0.76,BR,1675822553
414,Port Keats,-14.25,129.55,88.83,61,7,8.81,AU,1675822554
415,Pipri,19.8,75.5333,65.68,41,5,4.05,IN,1675822554
416,Ferkessedougou,9.6,-5.2,81.5,43,100,4.63,CI,1675822554
417,Hualmay,-11.0964,-77.6139,73.18,83,21,6.62,PE,1675822555
418,Bilma,18.6853,12.9164,66.97,21,100,6.6,NE,1675822556
419,Itai,-23.4178,-49.0906,66.72,96,15,6.8,BR,1675822556
420,Saint-Pierre,-21.3393,55.4781,76.68,78,0,5.75,RE,1675822556
421,Khomutovo,52.4658,104.4025,-6.99,98,99,1.77,RU,1675822557
422,Dunmanway,51.7167,-9.1167,38.32,91,94,5.37,IE,1675822557
423,Quatre Cocos,-20.2078,57.7625,78.91,81,41,14.83,MU,1675822558
424,Kendari,-3.945,122.4989,86.77,61,100,2.28,ID,1675822559
425,Kyra,49.5776,111.9753,4.86,77,9,2.62,RU,1675822559
426,Kibaya,-5.3,36.5667,58.64,92,100,1.88,TZ,1675822560
427,Santa Cruz,-17.8,-63.1667,74.66,88,100,5.75,BO,1675822494
428,Kamenka,51.3223,42.7678,6.57,94,7,10.0,RU,1675822560
429,Cidreira,-30.1811,-50.2056,75.56,80,15,14.36,BR,1675822406
430,Nagycserkesz,47.9667,21.5333,28.02,79,100,10.63,HU,1675822561
431,Tura,25.5198,90.2201,64.18,47,97,2.28,IN,1675822563
432,Lata,40.1629,-8.3327,48.07,80,33,4.7,PT,1675822566
433,Tilichiki,60.4667,166.1,-19.12,90,72,10.07,RU,1675822570
434,Namatanai,-3.6667,152.4333,85.95,64,93,10.38,PG,1675822576
435,Vegreville,53.5001,-112.0518,30.51,79,53,3.44,CA,1675822581
436,Egvekinot,66.3167,-179.1667,-21.08,87,87,8.46,RU,1675822583
437,Marica,-22.9194,-42.8186,75.11,93,100,5.14,BR,1675822590
438,Chenzhou,25.8,113.0333,49.82,95,100,3.02,CN,1675822594
439,Marzuq,14.4,46.4667,61.38,55,6,4.72,YE,1675822596
440,Marawi,7.9986,124.2928,76.53,60,94,3.87,PH,1675822597
441,Fortuna,40.5982,-124.1573,52.99,79,40,6.91,US,1675822597
442,Roblin,51.23,-101.3565,22.96,93,73,5.88,CA,1675822598
443,Ternate,0.8,127.4,76.86,91,100,10.69,ID,1675822599
444,Gonen,40.1049,27.654,33.76,88,99,12.77,TR,1675822599
445,Kachiry,53.0675,76.1036,-3.69,100,99,2.93,KZ,1675822600
446,Mtimbira,-8.7833,36.35,71.4,98,100,0.81,TZ,1675822600
447,Meridian,43.6121,-116.3915,46.35,61,100,14.97,US,1675822479
448,Rio Grande,-32.035,-52.0986,74.01,72,0,14.16,BR,1675822601
449,Backnang,48.95,9.4333,25.97,90,0,4.03,DE,1675822506
450,Calama,-22.4667,-68.9333,64.89,48,75,8.05,CL,1675822486
451,Port-Gentil,-0.7193,8.7815,80.55,80,88,10.18,GA,1675822462
452,Slave Lake,55.2834,-114.769,22.98,74,0,2.3,CA,1675822512
453,Kahului,20.8947,-156.47,78.96,74,40,23.02,US,1675822369
454,Anloga,5.7947,0.8973,80.31,82,27,10.07,GH,1675822603
455,Lyuban,52.7985,28.0048,12.18,97,50,2.51,BY,1675822604
456,San Cristobal,7.7669,-72.225,69.98,78,12,1.66,VE,1675822604
457,Springbok,-29.6643,17.8865,61.29,74,15,2.82,ZA,1675822605
458,Belmonte,-15.8631,-38.8828,77.72,78,6,8.39,BR,1675822605
459,Menomonie,44.8755,-91.9193,30.24,93,0,3.44,US,1675822606
460,Wajima,37.4,136.9,39.88,100,75,2.3,JP,1675822606
461,Nazareno Etla,17.1783,-96.8239,66.99,62,60,3.89,MX,1675822607
462,Maryville,35.7565,-83.9705,57.09,63,40,3.44,US,1675822443
463,Los Llanos De Aridane,28.6585,-17.9182,53.35,62,0,8.05,ES,1675822478
464,Dezful,32.3811,48.4058,50.23,58,3,1.16,IR,1675822608
465,Glace Bay,46.1969,-59.957,27.79,80,100,11.5,CA,1675822608
466,West Bay,19.3667,-81.4167,80.67,81,20,16.11,KY,1675822609
467,Fort Saint James,54.4333,-124.25,21.67,98,100,3.04,CA,1675822610
468,Tautira,-17.7333,-149.15,80.1,61,5,4.72,PF,1675822610
469,College,64.8569,-147.8028,6.58,80,40,0.0,US,1675822454
470,Yorkton,51.2167,-102.4677,28.24,80,75,13.8,CA,1675822554
471,Belyye Berega,53.2085,34.6641,5.18,98,65,1.83,RU,1675822611
472,Biu,10.6129,12.1946,66.65,23,13,6.42,NG,1675822612
473,Berlevag,70.8578,29.0864,35.6,80,20,23.02,NO,1675822612
474,Veydelevka,50.1521,38.4492,12.54,92,6,11.72,RU,1675822613
475,Mangaratiba,-22.9597,-44.0406,72.46,92,99,2.77,BR,1675822613
476,Northam,51.0333,-4.2167,38.61,93,0,6.31,GB,1675822613
477,Kiama,-34.6833,150.8667,73.0,91,100,1.99,AU,1675822614
478,Ankazoabo,-22.2833,44.5167,69.03,91,100,4.25,MG,1675822615
479,Kolaras,25.2333,77.6,56.48,44,0,2.33,IN,1675822615
480,Atambua,-9.1061,124.8925,81.21,72,54,3.71,ID,1675822616
481,Kununurra,-15.7667,128.7333,93.18,52,7,5.75,AU,1675822349
482,Jacareacanga,-6.2222,-57.7528,72.91,99,95,1.03,BR,1675822616
483,Tezu,27.9167,96.1667,63.05,58,99,0.65,IN,1675822617
484,Henties Bay,-22.116,14.2845,64.65,89,47,4.61,NA,1675822617
485,Vilyuysk,63.7553,121.6247,-34.01,97,99,1.77,RU,1675822618
486,Sabha,27.0377,14.4283,53.06,38,100,12.37,LY,1675822618
487,Westport,41.1415,-73.3579,42.78,81,100,3.44,US,1675822480
488,Mawlaik,23.6333,94.4167,65.34,45,0,0.96,MM,1675822619
489,Torit,4.4133,32.5678,77.11,35,9,2.39,SS,1675822620
490,Ankang,32.68,109.0172,44.92,88,100,5.23,CN,1675822620
491,Arroyo,41.6096,-4.7969,36.1,81,0,19.57,ES,1675822620
492,Aktau,43.65,51.2,36.18,81,100,14.94,KZ,1675822621
493,Jurado,7.1053,-77.7641,77.85,88,89,1.66,CO,1675822621
494,Havoysund,70.9963,24.6622,37.63,73,22,28.97,NO,1675822624
495,Biak,-0.9131,122.8766,78.35,80,100,5.84,ID,1675822486
496,Margate,51.3813,1.3862,39.74,67,89,2.57,GB,1675822635
497,Baculin,7.4525,126.5842,81.61,69,88,9.19,PH,1675822638
498,Hofn,64.2539,-15.2082,31.66,71,100,18.37,IS,1675822602
499,Dhamrai,23.9202,90.2109,64.38,65,5,3.71,BD,1675822640
500,Coahuayana,18.7333,-103.6833,71.91,90,13,0.54,MX,1675822641
501,Mitchell,43.7094,-98.0298,33.78,75,0,8.05,US,1675822568
502,Lasa,46.6166,10.7002,24.03,79,30,0.51,IT,1675822614
503,Nouna,12.7333,-3.8667,80.85,18,100,2.57,BF,1675822649
504,Terrace,54.5163,-128.6035,31.91,93,100,3.44,CA,1675822652
505,Bangui,4.3612,18.555,72.86,20,16,2.1,CF,1675822653
506,Gambela,8.25,34.5833,76.3,27,3,2.64,ET,1675822653
507,Andra,62.5147,65.8878,-6.34,100,100,6.31,RU,1675822654
508,Manokwari,-0.8667,134.0833,79.07,85,100,1.72,ID,1675822654
509,Qinzhou,21.95,108.6167,65.89,91,100,3.47,CN,1675822655
510,Cossato,45.5739,8.1817,33.44,79,13,4.56,IT,1675822656
511,Sobolevo,54.4299,31.8996,4.21,99,64,3.56,RU,1675822656
512,Pasighat,28.0667,95.3333,61.68,70,100,2.77,IN,1675822657
513,Talnakh,69.4865,88.3972,-7.71,98,100,7.58,RU,1675822657
514,Monte Alegre,-2.0078,-54.0692,74.39,94,87,3.4,BR,1675822658
515,Kutum,14.2,24.6667,53.46,35,20,9.91,SD,1675822658
516,Sur,22.5667,59.5289,72.46,56,27,7.81,OM,1675822549
517,Sabang,5.8933,95.3214,81.54,74,100,15.05,ID,1675822634
518,Benghazi,32.1167,20.0667,54.63,56,71,9.37,LY,1675822659
519,Stornoway,58.2093,-6.3865,46.36,79,100,37.98,GB,1675822660
520,Nantucket,41.2835,-70.0995,35.65,82,20,11.5,US,1675822661
521,Atocha,-20.9333,-66.2333,47.5,71,76,5.57,BO,1675822661
522,Bayburt,40.2589,40.2278,3.51,95,99,3.02,TR,1675822661
523,Ouadda,8.0777,22.4007,72.75,14,15,9.71,CF,1675822662
524,Arlit,18.7369,7.3853,69.85,16,100,2.24,NE,1675822663
525,Innisfail,-17.5333,146.0333,81.75,89,100,9.62,AU,1675822543
526,Tabou,4.423,-7.3528,78.71,86,100,6.06,CI,1675822663
527,San Rafael,-34.6177,-68.3301,82.11,32,25,7.4,AR,1675822664
528,Meulaboh,4.1363,96.1285,78.8,76,89,2.17,ID,1675822664
529,Luau,-10.7073,22.2247,63.75,93,100,3.15,AO,1675822665
530,Lakes Entrance,-37.8811,147.981,67.15,64,30,9.69,AU,1675822665
531,Khorixas,-20.3667,14.9667,64.6,53,25,3.87,NA,1675822666
532,Berasia,23.6333,77.4333,56.43,39,0,4.56,IN,1675822666
533,Sopot,54.4418,18.56,32.41,92,100,9.22,PL,1675822667
534,Nanga Eboko,4.6833,12.3667,64.33,60,27,1.3,CM,1675822668
535,Kijang,35.2442,129.2139,49.73,38,18,3.2,KR,1675822492
536,Farim,12.4839,-15.2217,71.53,23,1,3.44,GW,1675822668
537,Chumikan,54.7183,135.315,-16.67,76,62,12.88,RU,1675822418
538,Shaunavon,49.6501,-108.4181,30.06,82,82,12.33,CA,1675822404
539,San Carlos De Bariloche,-41.1456,-71.3082,64.15,55,0,10.36,AR,1675822669
540,Tarauaca,-8.1614,-70.7656,71.46,98,75,1.86,BR,1675822670
541,Yarim,14.298,44.3779,49.62,86,78,1.5,YE,1675822670
542,Abashiri,44.0213,144.2697,23.29,63,75,3.44,JP,1675822671
543,Xixiang,35.1628,112.865,45.75,47,100,10.4,CN,1675822671
544,Cockburn Town,21.4612,-71.1419,77.9,74,0,23.24,TC,1675822659
545,Gandajika,-6.75,23.95,64.47,93,100,2.08,CD,1675822673
546,Lerwick,60.1545,-1.1494,44.6,73,99,31.29,GB,1675822673
547,Tutoia,-2.7619,-42.2744,76.24,88,100,6.8,BR,1675822674
548,Marrakesh,31.6315,-8.0083,48.27,76,40,3.44,MA,1675822675
549,Olkhovka,53.2115,60.6069,-8.37,100,100,5.64,RU,1675822675
550,Hirara,24.8,125.2833,71.87,73,75,12.66,JP,1675822676
551,Muyezerskiy,63.9333,31.65,29.55,97,100,7.85,RU,1675822676
552,Tual,-5.6667,132.75,81.5,78,99,22.1,ID,1675822560
553,Port Augusta,-32.5,137.7667,93.72,14,0,3.18,AU,1675822677
554,Nola,40.922,14.5329,41.41,72,21,5.01,IT,1675822677
555,Vostok,46.4856,135.8833,4.1,75,87,10.25,RU,1675822678
556,Eregli,37.5133,34.0467,18.09,94,100,2.84,TR,1675822678
557,Ayr,55.4627,-4.6339,45.5,93,75,9.22,GB,1675822679
558,Amberley,39.2048,-84.428,52.25,90,100,4.61,US,1675822679
559,Khasan,42.4308,130.6434,26.49,42,0,15.39,RU,1675822680
560,Pansemal,21.65,74.7,66.63,31,1,5.73,IN,1675822680
561,Newport,51.5877,-2.9984,37.51,90,0,2.13,GB,1675822681
562,Igarka,67.4667,86.5833,-7.22,100,99,2.01,RU,1675822682
563,Botwood,49.1499,-55.3482,7.25,93,61,2.35,CA,1675822683
564,Lipin Bor,60.2622,37.9763,19.78,92,99,10.56,RU,1675822687
565,Cururupu,-1.8283,-44.8683,74.21,96,100,2.53,BR,1675822689
566,Ziguinchor,12.5833,-16.2719,68.2,88,0,6.91,SN,1675822690
567,Toora-Khem,52.4675,96.11,-0.78,97,100,1.21,RU,1675822691
568,Griffith,41.5284,-87.4237,35.89,85,0,8.05,US,1675822693
569,Bulgan,48.8125,103.5347,1.17,91,8,3.15,MN,1675822695
570,Garowe,8.4054,48.4845,65.52,92,36,6.87,SO,1675822696
571,Talara,-4.5772,-81.2719,77.76,69,0,10.36,PE,1675822697
572,Ginir,7.1333,40.7,56.43,39,1,2.33,ET,1675822699
573,Mumford,5.2618,-0.759,78.08,90,69,7.47,GH,1675822695
574,Kisangani,0.5167,25.2,75.72,59,100,3.36,CD,1675822711
575,Pokhara,28.2333,83.9833,55.54,49,44,4.36,NP,1675822713
576,Thibodaux,29.7958,-90.8229,66.97,88,82,1.01,US,1675822714
577,Ostrovnoy,68.0531,39.5131,31.48,75,3,24.9,RU,1675822715
578,Mutare,-18.9707,32.6709,61.81,94,92,1.86,ZW,1675822716
579,Kruisfontein,-34.0033,24.7314,65.88,83,100,4.14,ZA,1675822717
580,Manyana,-23.4,21.7167,64.99,88,100,5.14,BW,1675822718
581,Rivadavia,-33.1905,-68.4608,87.17,23,18,8.95,AR,1675822718
582,Oriximina,-1.7656,-55.8661,75.36,93,100,1.81,BR,1675822719
583,Ust-Omchug,61.15,149.6333,-26.18,92,70,4.23,RU,1675822719
584,Tafresh,34.692,50.013,28.6,77,31,10.38,IR,1675822720
